[
  {
      "name": "Livio Rossi",
      "email": "livio@live.it",
      "phone": "333 22 55 671",
      "city": "Bologna",
      "canMove": true,
      "degree": "Laurea",
      "skill": "Web dev",
      "interests": ["true"],
      "available_from": "20/10/2023",
      "notice": 10,
      "latitude": 44.5075,
      "longitude": 11.3514
  },
  {
      "name": "Mario Bianchi",
      "email": "mario@live.it",
      "phone": "334 22 55 672",
      "city": "Cagliari",
      "canMove": false,
      "degree": "Diploma",
      "skill": "CAD",
      "interests": ["false"],
      "available_from": "22/09/2023",
      "notice": 11,
      "latitude": 39.25,
      "longitude": 9.05
  },
  {
      "name": "Anna Verdi",
      "email": "anna@live.it",
      "phone": "335 22 55 673",
      "city": "Genova",
      "canMove": false,
      "degree": "Diploma ",
      "skill": "Front-end",
      "interests": ["true"],
      "available_from": "01/01/2023",
      "notice": 12,
      "latitude": 44.411111,
      "longitude": 8.932778
  },
  {
      "name": "Lara Neri",
      "email": "lara@live.it",
      "phone": "336 22 55 674",
      "city": "Firenze",
      "canMove": true,
      "degree": "Laurea",
      "skill": "Excel",
      "interests": ["false"],
      "available_from": "13/07/2023",
      "notice": 10,
      "latitude": 43.7686976,
      "longitude": 11.2569291
  },
  {
      "name": "Sofia Gialli",
      "email": "sofia@live.it",
      "phone": "337 22 55 675",
      "city": "Palermo",
      "canMove": true,
      "degree": "Laurea",
      "skill": "Back-end",
      "interests": ["true"],
      "available_from": "10/02/2023",
      "notice": 11,
      "latitude": 38.116667,
      "longitude": 13.366667
  }
]
